[
  {
    "lat": 54.321871000000000,
    "lng": 18.552005000000000,
    "name": "ul. Przywidzka 6c"
  },
  {
    "lat": 54.443336000000000,
    "lng": 18.562563000000000,
    "name": "ul. Bohaterów Monte Cassino 21"
  },
  {
    "lat": 54.476095805600000,
    "lng": 18.552218838600000,
    "name": "Al. Zwyciestwa 256"
  },
  {
    "lat": 54.382982000000000,
    "lng": 18.600112000000000,
    "name": "Al. Grunwaldzka 141 (Galeria Bałtycka)"
  },
  {
    "lat": 54.407627000000000,
    "lng": 18.590122900000000,
    "name": "ul. Chłopska 18"
  },
  {
    "lat": 54.357685525300000,
    "lng": 18.587343561900000,
    "name": "ul. Jaśkowa Dolina 134"
  },
  {
    "lat": 54.458884207800000,
    "lng": 16.994498322100000,
    "name": "ul. Szczecińska 36 i"
  },
  {
    "lat": 53.694775904600000,
    "lng": 17.556253129400000,
    "name": "ul. Szeroka 6"
  },
  {
    "lat": 54.572362098900000,
    "lng": 18.386123838000000,
    "name": "ul. Grunwaldzka 2a"
  },
  {
    "lat": 54.091819000000000,
    "lng": 18.776526900000000,
    "name": "ul. Braci Grimm 1A"
  },
  {
    "lat": 54.718031006400000,
    "lng": 18.392722982500000,
    "name": "ul. 10 lutego 45"
  },
  {
    "lat": 54.211642205400000,
    "lng": 19.105384169300000,
    "name": "ul. Warszawska 2i"
  },
  {
    "lat": 54.527170000000000,
    "lng": 18.512080000000000,
    "name": "ul. Morska 58"
  },
  {
    "lat": 54.545267000000000,
    "lng": 18.444226000000000,
    "name": "Morska 409"
  },
  {
    "lat": 54.411419000000000,
    "lng": 18.567027000000000,
    "name": "AL. Grunwaldzka 527"
  },
  {
    "lat": 54.037466204000000,
    "lng": 19.032153098700000,
    "name": "ul. Piastowska 2"
  },
  {
    "lat": 54.400270000000000,
    "lng": 18.573640000000000,
    "name": "ul. Bażyńskiego 2"
  },
  {
    "lat": 54.503319565600000,
    "lng": 18.531720145400000,
    "name": "Kazimierza Górskiego 2"
  },
  {
    "lat": 54.327010655200000,
    "lng": 18.608018159900000,
    "name": "Świętokrzyska 2"
  },
  {
    "lat": 54.521369783600000,
    "lng": 18.529804786500000,
    "name": "Plac Konstytucji 1"
  },
  {
    "lat": 54.248250000000000,
    "lng": 18.633169000000000,
    "name": "ul. Grunwaldzka 97 A"
  },
  {
    "lat": 54.433435800000000,
    "lng": 18.486681300000000,
    "name": "ul. Odyseusza 16"
  },
  {
    "lat": 53.965818890200000,
    "lng": 18.515921831100000,
    "name": "ul. Droga Nowowiejska 2"
  },
  {
    "lat": 54.380836600000000,
    "lng": 18.468433200000000,
    "name": "ul. Słowackiego 210"
  },
  {
    "lat": 54.532388257300000,
    "lng": 17.758488804100000,
    "name": "ul. Bolesława Krzywoustego 47"
  },
  {
    "lat": 54.349496624540760,
    "lng": 18.643258742327240,
    "name": "ul. Targ Sienny 7 (Poziom +2)"
  },
  {
    "lat": 54.350261522319360,
    "lng": 18.645200900759093,
    "name": "ul. Targ Sienny 7 (Poziom -1)"
  },
  {
    "lat": 53.669612365852046,
    "lng": 17.350630760192870,
    "name": "ul.Koszalińska"
  },
  {
    "lat": 54.108879957400000,
    "lng": 17.975735664400000,
    "name": "ul. Chojnicka 76"
  },
  {
    "lat": 54.790640246330060,
    "lng": 18.419437408447266,
    "name": "ul. Starowiejska 31"
  },
  {
    "lat": 54.609857319005770,
    "lng": 18.199367523193360,
    "name": "ul. Tartaczna 1"
  },
  {
    "lat": 54.564195062661190,
    "lng": 18.502585835577920,
    "name": "Pułkownika Stanisława Dąbka 338"
  },
  {
    "lat": 54.189887455680600,
    "lng": 18.631581537606934,
    "name": "Polna 55"
  },
  {
    "lat": 54.192398997752070,
    "lng": 18.633080720901490,
    "name": "Pomorska 72"
  },
  {
    "lat": 54.249096125214315,
    "lng": 18.979474819406220,
    "name": "Dworek 8F"
  },
  {
    "lat": 54.396485899999990,
    "lng": 18.634459000000000,
    "name": "ul. Uczniowska 30a"
  },
  {
    "lat": 54.460411000000000,
    "lng": 17.048447000000000,
    "name": "ul. Gdyńska 2"
  }
]
